<?xml version="1.0" encoding="UTF-8"?>
<kml xmlns="http://earth.google.com/kml/2.1">
<Document>
	<name><![CDATA[Catégorie:Université de Strasbourg]]></name>
	<open>1</open>
		<Placemark>
			<name><![CDATA[Bibliothèque nationale et universitaire (Strasbourg)]]></name>
			<Point>
				<coordinates>7.756111,48.587222,0</coordinates>
			</Point>
			<Snippet></Snippet>
			<description><![CDATA[<br>Source: Wikipedia article <a href="http://fr.wikipedia.org/wiki/Bibliothèque_nationale_et_universitaire_(Strasbourg)">Bibliothèque nationale et universitaire (Strasbourg)</a>]]></description>
		</Placemark>
		<Placemark>
			<name><![CDATA[Centre de formation d'apprentis universitaire]]></name>
			<Point>
				<coordinates>7.301,47.7309,0</coordinates>
			</Point>
			<Snippet></Snippet>
			<description><![CDATA[<br>Source: Wikipedia article <a href="http://fr.wikipedia.org/wiki/Centre_de_formation_d'apprentis_universitaire">Centre de formation d'apprentis universitaire</a>]]></description>
		</Placemark>
		<Placemark>
			<name><![CDATA[Collège doctoral européen de l'université de Strasbourg]]></name>
			<Point>
				<coordinates>7.7684712,48.5811925,0</coordinates>
			</Point>
			<Snippet></Snippet>
			<description><![CDATA[<br>Source: Wikipedia article <a href="http://fr.wikipedia.org/wiki/Collège_doctoral_européen_de_l'université_de_Strasbourg">Collège doctoral européen de l'université de Strasbourg</a>]]></description>
		</Placemark>
		<Placemark>
			<name><![CDATA[EM Strasbourg Business School]]></name>
			<Point>
				<coordinates>7.7736855,48.5830379,0</coordinates>
			</Point>
			<Snippet></Snippet>
			<description><![CDATA[<br>Source: Wikipedia article <a href="http://fr.wikipedia.org/wiki/EM_Strasbourg_Business_School">EM Strasbourg Business School</a>]]></description>
		</Placemark>
		<Placemark>
			<name><![CDATA[Faculté de droit, sciences politiques et gestion de Strasbourg]]></name>
			<Point>
				<coordinates>7.768056,48.578889,0</coordinates>
			</Point>
			<Snippet></Snippet>
			<description><![CDATA[<br>Source: Wikipedia article <a href="http://fr.wikipedia.org/wiki/Faculté_de_droit,_sciences_politiques_et_gestion_de_Strasbourg">Faculté de droit, sciences politiques et gestion de Strasbourg</a>]]></description>
		</Placemark>
		<Placemark>
			<name><![CDATA[Faculté de médecine de Strasbourg]]></name>
			<Point>
				<coordinates>7.7392673,48.5771466,0</coordinates>
			</Point>
			<Snippet></Snippet>
			<description><![CDATA[<br>Source: Wikipedia article <a href="http://fr.wikipedia.org/wiki/Faculté_de_médecine_de_Strasbourg">Faculté de médecine de Strasbourg</a>]]></description>
		</Placemark>
		<Placemark>
			<name><![CDATA[Faculté de théologie catholique de Strasbourg]]></name>
			<Point>
				<coordinates>7.762418,48.584777,0</coordinates>
			</Point>
			<Snippet></Snippet>
			<description><![CDATA[<br>Source: Wikipedia article <a href="http://fr.wikipedia.org/wiki/Faculté_de_théologie_catholique_de_Strasbourg">Faculté de théologie catholique de Strasbourg</a>]]></description>
		</Placemark>
		<Placemark>
			<name><![CDATA[Faculté des sciences économiques et de gestion de Strasbourg]]></name>
			<Point>
				<coordinates>7.773664,48.583123,0</coordinates>
			</Point>
			<Snippet></Snippet>
			<description><![CDATA[<br>Source: Wikipedia article <a href="http://fr.wikipedia.org/wiki/Faculté_des_sciences_économiques_et_de_gestion_de_Strasbourg">Faculté des sciences économiques et de gestion de Strasbourg</a>]]></description>
		</Placemark>
		<Placemark>
			<name><![CDATA[Gallia (Strasbourg)]]></name>
			<Point>
				<coordinates>7.75879,48.584192,0</coordinates>
			</Point>
			<Snippet></Snippet>
			<description><![CDATA[<br>Source: Wikipedia article <a href="http://fr.wikipedia.org/wiki/Gallia_(Strasbourg)">Gallia (Strasbourg)</a>]]></description>
		</Placemark>
		<Placemark>
			<name><![CDATA[Institut d'études politiques de Strasbourg]]></name>
			<Point>
				<coordinates>7.7710676,48.5843722,0</coordinates>
			</Point>
			<Snippet></Snippet>
			<description><![CDATA[<br>Source: Wikipedia article <a href="http://fr.wikipedia.org/wiki/Institut_d'études_politiques_de_Strasbourg">Institut d'études politiques de Strasbourg</a>]]></description>
		</Placemark>
		<Placemark>
			<name><![CDATA[Institut de biologie moléculaire et cellulaire]]></name>
			<Point>
				<coordinates>7.764775,48.579631,0</coordinates>
			</Point>
			<Snippet></Snippet>
			<description><![CDATA[<br>Source: Wikipedia article <a href="http://fr.wikipedia.org/wiki/Institut_de_biologie_moléculaire_et_cellulaire">Institut de biologie moléculaire et cellulaire</a>]]></description>
		</Placemark>
		<Placemark>
			<name><![CDATA[Institut de génétique et de biologie moléculaire et cellulaire]]></name>
			<Point>
				<coordinates>7.741456,48.5257003,0</coordinates>
			</Point>
			<Snippet></Snippet>
			<description><![CDATA[<br>Source: Wikipedia article <a href="http://fr.wikipedia.org/wiki/Institut_de_génétique_et_de_biologie_moléculaire_et_cellulaire">Institut de génétique et de biologie moléculaire et cellulaire</a>]]></description>
		</Placemark>
		<Placemark>
			<name><![CDATA[Institut universitaire de technologie Louis Pasteur]]></name>
			<Point>
				<coordinates>7.708089,48.607433,0</coordinates>
			</Point>
			<Snippet></Snippet>
			<description><![CDATA[<br>Source: Wikipedia article <a href="http://fr.wikipedia.org/wiki/Institut_universitaire_de_technologie_Louis_Pasteur">Institut universitaire de technologie Louis Pasteur</a>]]></description>
		</Placemark>
		<Placemark>
			<name><![CDATA[Institut universitaire de technologie Robert-Schuman]]></name>
			<Point>
				<coordinates>7.736778,48.530425,0</coordinates>
			</Point>
			<Snippet></Snippet>
			<description><![CDATA[<br>Source: Wikipedia article <a href="http://fr.wikipedia.org/wiki/Institut_universitaire_de_technologie_Robert-Schuman">Institut universitaire de technologie Robert-Schuman</a>]]></description>
		</Placemark>
		<Placemark>
			<name><![CDATA[Institut universitaire de technologie de Haguenau]]></name>
			<Point>
				<coordinates>7.786211,48.816207,0</coordinates>
			</Point>
			<Snippet></Snippet>
			<description><![CDATA[<br>Source: Wikipedia article <a href="http://fr.wikipedia.org/wiki/Institut_universitaire_de_technologie_de_Haguenau">Institut universitaire de technologie de Haguenau</a>]]></description>
		</Placemark>
		<Placemark>
			<name><![CDATA[Jardin botanique de l'université de Strasbourg]]></name>
			<Point>
				<coordinates>7.768064,48.582939,0</coordinates>
			</Point>
			<Snippet></Snippet>
			<description><![CDATA[<br>Source: Wikipedia article <a href="http://fr.wikipedia.org/wiki/Jardin_botanique_de_l'université_de_Strasbourg">Jardin botanique de l'université de Strasbourg</a>]]></description>
		</Placemark>
		<Placemark>
			<name><![CDATA[Maison Interuniversitaire des Sciences de l'Homme - Alsace]]></name>
			<Point>
				<coordinates>7.768311,48.580205,0</coordinates>
			</Point>
			<Snippet></Snippet>
			<description><![CDATA[<br>Source: Wikipedia article <a href="http://fr.wikipedia.org/wiki/Maison_Interuniversitaire_des_Sciences_de_l'Homme_-_Alsace">Maison Interuniversitaire des Sciences de l'Homme - Alsace</a>]]></description>
		</Placemark>
		<Placemark>
			<name><![CDATA[Musée de sismologie et de magnétisme terrestre]]></name>
			<Point>
				<coordinates>7.765541,48.583478,0</coordinates>
			</Point>
			<Snippet></Snippet>
			<description><![CDATA[<br>Source: Wikipedia article <a href="http://fr.wikipedia.org/wiki/Musée_de_sismologie_et_de_magnétisme_terrestre">Musée de sismologie et de magnétisme terrestre</a>]]></description>
		</Placemark>
		<Placemark>
			<name><![CDATA[Planétarium de Strasbourg]]></name>
			<Point>
				<coordinates>7.767778,48.583333,0</coordinates>
			</Point>
			<Snippet></Snippet>
			<description><![CDATA[<br>Source: Wikipedia article <a href="http://fr.wikipedia.org/wiki/Planétarium_de_Strasbourg">Planétarium de Strasbourg</a>]]></description>
		</Placemark>
		<Placemark>
			<name><![CDATA[Pôle européen de gestion et d'économie]]></name>
			<Point>
				<coordinates>7.77368611111111,48.5830388888889,0</coordinates>
			</Point>
			<Snippet></Snippet>
			<description><![CDATA[<br>Source: Wikipedia article <a href="http://fr.wikipedia.org/wiki/Pôle_européen_de_gestion_et_d'économie">Pôle européen de gestion et d'économie</a>]]></description>
		</Placemark>
		<Placemark>
			<name><![CDATA[Télécom Physique Strasbourg]]></name>
			<Point>
				<coordinates>7.737719,48.525814,0</coordinates>
			</Point>
			<Snippet></Snippet>
			<description><![CDATA[<br>Source: Wikipedia article <a href="http://fr.wikipedia.org/wiki/Télécom_Physique_Strasbourg">Télécom Physique Strasbourg</a>]]></description>
		</Placemark>
		<Placemark>
			<name><![CDATA[Université Strasbourg I]]></name>
			<Point>
				<coordinates>7.764777,48.581647,0</coordinates>
			</Point>
			<Snippet></Snippet>
			<description><![CDATA[<br>Source: Wikipedia article <a href="http://fr.wikipedia.org/wiki/Université_Strasbourg_I">Université Strasbourg I</a>]]></description>
		</Placemark>
		<Placemark>
			<name><![CDATA[Université Strasbourg II]]></name>
			<Point>
				<coordinates>7.764112,48.579546,0</coordinates>
			</Point>
			<Snippet></Snippet>
			<description><![CDATA[<br>Source: Wikipedia article <a href="http://fr.wikipedia.org/wiki/Université_Strasbourg_II">Université Strasbourg II</a>]]></description>
		</Placemark>
		<Placemark>
			<name><![CDATA[Université Strasbourg III]]></name>
			<Point>
				<coordinates>7.767631,48.579021,0</coordinates>
			</Point>
			<Snippet></Snippet>
			<description><![CDATA[<br>Source: Wikipedia article <a href="http://fr.wikipedia.org/wiki/Université_Strasbourg_III">Université Strasbourg III</a>]]></description>
		</Placemark>
		<Placemark>
			<name><![CDATA[École et observatoire des sciences de la Terre]]></name>
			<Point>
				<coordinates>7.761944,48.579722,0</coordinates>
			</Point>
			<Snippet></Snippet>
			<description><![CDATA[<br>Source: Wikipedia article <a href="http://fr.wikipedia.org/wiki/École_et_observatoire_des_sciences_de_la_Terre">École et observatoire des sciences de la Terre</a>]]></description>
		</Placemark>
		<Placemark>
			<name><![CDATA[École européenne de chimie, polymères et matériaux]]></name>
			<Point>
				<coordinates>7.7107286,48.6025948,0</coordinates>
			</Point>
			<Snippet></Snippet>
			<description><![CDATA[<br>Source: Wikipedia article <a href="http://fr.wikipedia.org/wiki/École_européenne_de_chimie,_polymères_et_matériaux">École européenne de chimie, polymères et matériaux</a>]]></description>
		</Placemark>
		<Placemark>
			<name><![CDATA[École impériale du Service de santé militaire de Strasbourg]]></name>
			<Point>
				<coordinates>7.750722,48.581038,0</coordinates>
			</Point>
			<Snippet></Snippet>
			<description><![CDATA[<br>Source: Wikipedia article <a href="http://fr.wikipedia.org/wiki/École_impériale_du_Service_de_santé_militaire_de_Strasbourg">École impériale du Service de santé militaire de Strasbourg</a>]]></description>
		</Placemark>
		<Placemark>
			<name><![CDATA[École nationale du génie de l'eau et de l'environnement de Strasbourg]]></name>
			<Point>
				<coordinates>7.7576566,48.5850109,0</coordinates>
			</Point>
			<Snippet></Snippet>
			<description><![CDATA[<br>Source: Wikipedia article <a href="http://fr.wikipedia.org/wiki/École_nationale_du_génie_de_l'eau_et_de_l'environnement_de_Strasbourg">École nationale du génie de l'eau et de l'environnement de Strasbourg</a>]]></description>
		</Placemark>
		<Placemark>
			<name><![CDATA[École nationale supérieure d'architecture de Strasbourg]]></name>
			<Point>
				<coordinates>7.7374864,48.5861749,0</coordinates>
			</Point>
			<Snippet></Snippet>
			<description><![CDATA[<br>Source: Wikipedia article <a href="http://fr.wikipedia.org/wiki/École_nationale_supérieure_d'architecture_de_Strasbourg">École nationale supérieure d'architecture de Strasbourg</a>]]></description>
		</Placemark>
		<Placemark>
			<name><![CDATA[École supérieure de biotechnologie Strasbourg]]></name>
			<Point>
				<coordinates>7.737676,48.525601,0</coordinates>
			</Point>
			<Snippet></Snippet>
			<description><![CDATA[<br>Source: Wikipedia article <a href="http://fr.wikipedia.org/wiki/École_supérieure_de_biotechnologie_Strasbourg">École supérieure de biotechnologie Strasbourg</a>]]></description>
		</Placemark>
	<Folder>
		<name><![CDATA[Category:Étudiant de l'université de Strasbourg]]></name>
		<open>1</open>
	</Folder>
	<Folder>
		<name><![CDATA[Category:Docteur Honoris Causa de l'Université de Strasbourg]]></name>
		<open>1</open>
	</Folder>
	<Folder>
		<name><![CDATA[Category:Président de l'université de Strasbourg]]></name>
		<open>1</open>
	</Folder>
	<Folder>
		<name><![CDATA[Category:Campus de Strasbourg]]></name>
		<open>1</open>
		<Placemark>
			<name><![CDATA[Campus Médecine (Strasbourg)]]></name>
			<Point>
				<coordinates>7.747099,48.575869,0</coordinates>
			</Point>
			<Snippet></Snippet>
			<description><![CDATA[<br>Source: Wikipedia article <a href="http://fr.wikipedia.org/wiki/Campus_Médecine_(Strasbourg)">Campus Médecine (Strasbourg)</a>]]></description>
		</Placemark>
		<Placemark>
			<name><![CDATA[Campus central de Strasbourg]]></name>
			<Point>
				<coordinates>7.765145,48.58186,0</coordinates>
			</Point>
			<Snippet></Snippet>
			<description><![CDATA[<br>Source: Wikipedia article <a href="http://fr.wikipedia.org/wiki/Campus_central_de_Strasbourg">Campus central de Strasbourg</a>]]></description>
		</Placemark>
		<Placemark>
			<name><![CDATA[Campus d'Illkirch]]></name>
			<Point>
				<coordinates>7.735963,48.529736,0</coordinates>
			</Point>
			<Snippet></Snippet>
			<description><![CDATA[<br>Source: Wikipedia article <a href="http://fr.wikipedia.org/wiki/Campus_d'Illkirch">Campus d'Illkirch</a>]]></description>
		</Placemark>
		<Placemark>
			<name><![CDATA[Campus de Cronenbourg]]></name>
			<Point>
				<coordinates>7.710557,48.607575,0</coordinates>
			</Point>
			<Snippet></Snippet>
			<description><![CDATA[<br>Source: Wikipedia article <a href="http://fr.wikipedia.org/wiki/Campus_de_Cronenbourg">Campus de Cronenbourg</a>]]></description>
		</Placemark>
	</Folder>
	<Folder>
		<name><![CDATA[Category:Observatoire astronomique de Strasbourg]]></name>
		<open>1</open>
		<Placemark>
			<name><![CDATA[Observatoire astronomique de Strasbourg]]></name>
			<Point>
				<coordinates>7.768056,48.583333,0</coordinates>
			</Point>
			<Snippet></Snippet>
			<description><![CDATA[<br>Source: Wikipedia article <a href="http://fr.wikipedia.org/wiki/Observatoire_astronomique_de_Strasbourg">Observatoire astronomique de Strasbourg</a>]]></description>
		</Placemark>
		<Placemark>
			<name><![CDATA[Simbad]]></name>
			<Point>
				<coordinates>7.76805555555556,48.5834722222222,0</coordinates>
			</Point>
			<Snippet></Snippet>
			<description><![CDATA[<br>Source: Wikipedia article <a href="http://fr.wikipedia.org/wiki/Simbad">Simbad</a>]]></description>
		</Placemark>
	</Folder>
	<Folder>
		<name><![CDATA[Category:Enseignant à l'université de Strasbourg]]></name>
		<open>1</open>
	<Folder>
		<name><![CDATA[Category:Professeur à l'université de Strasbourg]]></name>
		<open>1</open>
	</Folder>
	</Folder>
</Document>
</kml>
